{"Adana":[{"name":"Pamuk Eczanesi","address":"Ali ve Fevziye Özçelik A. S. M. yanı Ceyhan / Adana","city":"Adana","district":"Ceyhan","directions":"","phone":"0 (322) 612-06-02","pharmacyDutyStart":"2024-08-03 08:00:00","pharmacyDutyEnd":"2024-08-04 08:00:00","latitude":37.012787,"longitude":35.814412},{"name":"Murat Eczanesi","address":"Sanayi Sitesi 6 Ocak Sağlık Ocağı karşısı Ceyhan / Adana","city":"Adana","district":"Ceyhan","directions":"","phone":"0(322)611-10-11","pharmacyDutyStart":"2024-08-03 08:00:00","pharmacyDutyEnd":"2024-08-04 08:00:00","latitude":37.042288,"longitude":35.818181},{"name":"Sevinçler Eczanesi","address":"Süleyman Demirel Bulvarı Kurttepe ASM yanı ve PTT yanı Çukurova / Adana","city":"Adana","district":"Çukurova","directions":"","phone":"0(322)248-41-22","pharmacyDutyStart":"2024-08-03 08:00:00","pharmacyDutyEnd":"2024-08-04 08:00:00","latitude":37.054131,"longitude":35.273758},{"name":"Güven Eczanesi","address":"Çatalan Caddesi, Yeni Mahallesi, No:1 Salbaş Beldesi Karaisalı Yolu Üzeri Çukurova / Adana","city":"Adana","district":"Çukurova","directions":"","phone":"0(322)561-26-11","pharmacyDutyStart":"2024-08-03 08:00:00","pharmacyDutyEnd":"2024-08-04 08:00:00","latitude":37.110274,"longitude":35.112127},{"name":"Parlak Eczanesi","address":"T. Özal Bulvarı Gökkuşağı Oyun Merkezi yanındaki Starbucks karşısı Çukurova / Adana","city":"Adana","district":"Çukurova","directions":"","phone":"0(322)232-53-71","pharmacyDutyStart":"2024-08-03 08:00:00","pharmacyDutyEnd":"2024-08-04 08:00:00","latitude":37.045266,"longitude":35.307752},{"name":"Toklu Eczanesi","address":"Koyun Evi Yolu Lise Civarı İmamoğlu / Adana","city":"Adana","district":"İmamoğlu","directions":"","phone":"0(322)891-46-36","pharmacyDutyStart":"2024-08-03 08:00:00","pharmacyDutyEnd":"2024-08-04 08:00:00","latitude":37.267339,"longitude":35.661149},{"name":"Yeni Karaisalı Eczanesi","address":"Karapınar Mahallesi, Atatürk Caddesi, No:4/A Karaisalı / Adana","city":"Adana","district":"Karaisalı","directions":"Ziraat Bankası karşısı","phone":"0(322)551-20-78","pharmacyDutyStart":"2024-08-03 08:00:00","pharmacyDutyEnd":"2024-08-04 08:00:00","latitude":37.257391,"longitude":35.058476},{"name":"Talat Eczanesi","address":"Devlet Hastanesi Kavşağı Güney Kapısı Civarı Eski Dolmuş Durağı karşısı Kozan / Adana","city":"Adana","district":"Kozan","directions":"","phone":"0(322)515-86-46","pharmacyDutyStart":"2024-08-03 08:00:00","pharmacyDutyEnd":"2024-08-04 08:00:00","latitude":37.463901,"longitude":35.82473},{"name":"Arık Eczanesi","address":"Devlet Hastanesi Feke Yolu Kozan / Adana","city":"Adana","district":"Kozan","directions":"","phone":"0(322)515-66-31","pharmacyDutyStart":"2024-08-03 08:00:00","pharmacyDutyEnd":"2024-08-04 08:00:00","latitude":37.46414,"longitude":35.825971},{"name":"Öztürk Eczanesi","address":"Pozantı Merkez ASM karşısı Pazartesi Pazarı Sokağı","city":"Adana","district":"Pozantı","directions":"","phone":"0(322)581-31-21","pharmacyDutyStart":"2024-08-03 08:00:00","pharmacyDutyEnd":"2024-08-04 08:00:00","latitude":37.433566,"longitude":34.873329},{"name":"Filiz Özkan Eczanesi","address":"80. Yıl Sağlık Ocağı yanı Pozantı / Adana","city":"Adana","district":"Pozantı","directions":"","phone":"0(322)584-41-41","pharmacyDutyStart":"2024-08-03 08:00:00","pharmacyDutyEnd":"2024-08-04 08:00:00","latitude":37.328802,"longitude":34.793664},{"name":"Deva Eczanesi","address":"Saimbeyli Kaymakamlığı Civarı","city":"Adana","district":"Saimbeyli","directions":"","phone":"0(322)761-23-00","pharmacyDutyStart":"2024-08-03 08:00:00","pharmacyDutyEnd":"2024-08-04 08:00:00","latitude":37.984891,"longitude":36.088934},{"name":"Sarıçam Merkez Eczanesi","address":"Mehmet Akif Ersoy Mahallesi, Belediye Caddesi No:3/A Sarıçam / Adana","city":"Adana","district":"Sarıçam","directions":"Sarıçam Ticaret Merkezi yakını","phone":"0(322)328-02-93","pharmacyDutyStart":"2024-08-03 08:00:00","pharmacyDutyEnd":"2024-08-04 08:00:00","latitude":37.019921,"longitude":35.398099},{"name":"Neva Eczanesi","address":"Esentepe Mahallesi 3002 Sokak, No:13 Dilek Atlığ Caddesi, Eski Sofulu Köy Yolu Sarıçam / Adana","city":"Adana","district":"Sarıçam","directions":"","phone":"0(322)341-20-81","pharmacyDutyStart":"2024-08-03 08:00:00","pharmacyDutyEnd":"2024-08-04 08:00:00","latitude":37.033262,"longitude":35.410457},{"name":"Sevindik Eczanesi","address":"Obalar Caddesi Toros Taksi İlerisi Seyhan / Adana","city":"Adana","district":"Seyhan","directions":"","phone":"0(322)435-16-56","pharmacyDutyStart":"2024-08-03 08:00:00","pharmacyDutyEnd":"2024-08-04 08:00:00","latitude":36.97847,"longitude":35.309757},{"name":"Şaşmaz Eczanesi","address":"Pınar Mahallesi, 74057 Sokak, Pınar Sitesi Sarana karşı arası İl Sağlık Müdürlüğü Ek Hizmet Binası yanı Seyhan / Adana","city":"Adana","district":"Seyhan","directions":"","phone":"0(322)999-43-13","pharmacyDutyStart":"2024-08-03 08:00:00","pharmacyDutyEnd":"2024-08-04 08:00:00","latitude":37.023707,"longitude":35.286646},{"name":"Aylin Eczanesi","address":"Sarıhamzalı Mahallesi, 47014 Sokak No:13/A Seyhan / Adana","city":"Adana","district":"Seyhan","directions":"1 Nolu Sarıhamzalı ASM yanı","phone":"0 (322) 653-81-24","pharmacyDutyStart":"2024-08-03 08:00:00","pharmacyDutyEnd":"2024-08-04 08:00:00","latitude":36.978886,"longitude":35.223025},{"name":"Nüket Eczanesi","address":"Barajyolu 4. Durak No:18/C Seyhan / Adana","city":"Adana","district":"Seyhan","directions":"Opet Petrol İstasyonu ve Üst Geçit arası, Carrefour Market yanı","phone":"0(322)225-37-46","pharmacyDutyStart":"2024-08-03 08:00:00","pharmacyDutyEnd":"2024-08-04 08:00:00","latitude":37.017177,"longitude":35.319058},{"name":"Berfin Eczanesi","address":"Dağlıoğlu Sağlık Ocağı ve Karakolu karşısı Seyhan / Adana","city":"Adana","district":"Seyhan","directions":"","phone":"0(322)435-22-33","pharmacyDutyStart":"2024-08-03 08:00:00","pharmacyDutyEnd":"2024-08-04 08:00:00","latitude":36.973524,"longitude":35.306285},{"name":"Ihlamur Eczanesi","address":"Seyhan Başkent Hastanesi Civarı Akbank Cemalpaşa Şubesi karşısı Bağlar Karakolu Çaprazı","city":"Adana","district":"Seyhan","directions":"","phone":"0(322)457-01-09","pharmacyDutyStart":"2024-08-03 08:00:00","pharmacyDutyEnd":"2024-08-04 08:00:00","latitude":37.009634,"longitude":35.324015},{"name":"Doğuş Eczanesi","address":"Eski Doğumevi Hastanesi Bakımyurdu Caddesi üzerindeki Çocuk Hastanesi karşısı No:90/B Seyhan / Adana","city":"Adana","district":"Seyhan","directions":"","phone":"0(322)435-83-84","pharmacyDutyStart":"2024-08-03 08:00:00","pharmacyDutyEnd":"2024-08-04 08:00:00","latitude":36.987537,"longitude":35.315407},{"name":"Özde Eczanesi","address":"Beşevler Yolu Uçak Mahallesi, Uçak Sağlık Ocağı karşısı Seyhan / Adana","city":"Adana","district":"Seyhan","directions":"","phone":"0(322)429-19-50","pharmacyDutyStart":"2024-08-03 08:00:00","pharmacyDutyEnd":"2024-08-04 08:00:00","latitude":36.981744,"longitude":35.27311},{"name":"Emre Eczanesi","address":"Devlet Hastanesi karşısı Tufanbeyli / Adana","city":"Adana","district":"Tufanbeyli","directions":"","phone":"0(322)781-85-75","pharmacyDutyStart":"2024-08-03 08:00:00","pharmacyDutyEnd":"2024-08-04 08:00:00","latitude":38.258131,"longitude":36.21365},{"name":"Ayaz Korkmaz Eczanesi","address":"Dervişiye Mahallesi, Atatürk Caddesi No:74 Yumurtalık / Adana","city":"Adana","district":"Yumurtalık","directions":"Bayrak Direği yanı","phone":"0(322)671-20-02","pharmacyDutyStart":"2024-08-03 08:00:00","pharmacyDutyEnd":"2024-08-04 08:00:00","latitude":36.774332,"longitude":35.793849},{"name":"Güllük Eczanesi","address":"Atakent Mahallesi, Yaşar Doğu Caddesi, Afet Evleri Sağlık Ocağı karşısı Yüreğir / Adana","city":"Adana","district":"Yüreğir","directions":"","phone":"0(322)321-93-87","pharmacyDutyStart":"2024-08-03 08:00:00","pharmacyDutyEnd":"2024-08-04 08:00:00","latitude":36.99723,"longitude":35.370065},{"name":"Özgen Eczanesi","address":"Levent Sağlık Ocağı Civarı Yüreğir / Adana","city":"Adana","district":"Yüreğir","directions":"","phone":"0(322)346-20-01","pharmacyDutyStart":"2024-08-03 08:00:00","pharmacyDutyEnd":"2024-08-04 08:00:00","latitude":36.973823,"longitude":35.378988},{"name":"Çalışır Eczanesi","address":"Yavuzlar Mahallesi Yavuzlar Ortaokulu karşısı (Aqualand Giriş Kapısı Karşı Arası) Yüreğir Belediyesi Civarı","city":"Adana","district":"Yüreğir","directions":"","phone":"0(322)321-15-89","pharmacyDutyStart":"2024-08-03 08:00:00","pharmacyDutyEnd":"2024-08-04 08:00:00","latitude":37.000503,"longitude":35.343},{"name":"Oktay Eczanesi","address":"Kışla Mahallesi, Kışla Sağlık Ocağı Altıncı Kolordu karşısı Yüreğir / Adana","city":"Adana","district":"Yüreğir","directions":"","phone":"0(322)344-03-42","pharmacyDutyStart":"2024-08-03 08:00:00","pharmacyDutyEnd":"2024-08-04 08:00:00","latitude":37.020346,"longitude":35.341372},{"name":"Demiray Eczanesi","address":"Kemaliye Mahallesi, Atatürk Caddesi Karataş / Adana","city":"Adana","district":"Karataş","directions":"TEDAŞ Ve Eski Polis Lojmanı Karşısı","phone":"0 (322) 681-41-41","pharmacyDutyStart":"2024-08-03 08:00:00","pharmacyDutyEnd":"2024-08-04 08:00:00","latitude":36.57066,"longitude":35.383106},{"name":"İstanbulluoğlu Eczanesi","address":"Reşatbey Mahallesi, Cumhuriyet Caddesi No:39/A Seyhan / Adana","city":"Adana","district":"Seyhan","directions":"İsmet İnönü İlkokulu karşı çaprazı, Net Optik yanı","phone":"0 (322) 999-57-53","pharmacyDutyStart":"2024-08-03 08:00:00","pharmacyDutyEnd":"2024-08-04 08:00:00","latitude":36.996043,"longitude":35.326438},{"name":"Kaan Eczanesi","address":"İslam Mahallesi, Kocayurdan Kümeevleri No:23/C Feke / Adana","city":"Adana","district":"Feke","directions":"Feke İlçe Devlet Hastanesi karşı çaprazı","phone":"0 (322) 741-27-06","pharmacyDutyStart":"2024-08-03 08:00:00","pharmacyDutyEnd":"2024-08-04 08:00:00","latitude":37.816239,"longitude":35.919936},{"name":"Merve Akçayır Eczanesi","address":"Mansurlu Mahallesi, İnönü Caddesi No:63/B Aladağ / Adana","city":"Adana","district":"Aladağ","directions":"","phone":"0(505)596-37-01","pharmacyDutyStart":"2024-08-03 08:00:00","pharmacyDutyEnd":"2024-08-04 08:00:00","latitude":37.548294,"longitude":35.394099},{"name":"Hanimeli̇ Eczanesi","address":"Gürselpaşa Mahallesi̇ 6.Cadde No:10/A Seyhan/Adana","city":"Adana","district":"Seyhan","directions":null,"phone":"0(505)776-85-01","pharmacyDutyStart":"2024-08-03 08:00:00","pharmacyDutyEnd":"2024-08-04 08:00:00","latitude":37.013276,"longitude":35.279622},{"name":"Efsun Eczanesi","address":"Solakli Cumhuri̇yet Mah. Karataş Blv. No:1422/Z01 Yüreği̇r/Adana","city":"Adana","district":"Yüreğir","directions":null,"phone":"0(322)322-25-00","pharmacyDutyStart":"2024-08-03 08:00:00","pharmacyDutyEnd":"2024-08-04 08:00:00","latitude":36.801794,"longitude":35.332885},{"name":"Atilgan Eczanesi","address":"Toros Mah. Bariş Manço Bulv. No:16/C Öztürkm Apt. A Blok Zemi̇n 27 Çukurova/Adana","city":"Adana","district":"Çukurova","directions":null,"phone":"0(322)232-80-80","pharmacyDutyStart":"2024-08-03 08:00:00","pharmacyDutyEnd":"2024-08-04 08:00:00","latitude":37.046307,"longitude":35.294713},{"name":"Saki̇ne Özel Eczanesi","address":"Yüzüncüyil Mah. Haci Bektaş Veli̇ Bulvari Kapi:16/İ Çevi̇kler Plaza A Blok Çukurova/Adana","city":"Adana","district":"Çukurova","directions":null,"phone":"0(322)256-95-96","pharmacyDutyStart":"2024-08-03 08:00:00","pharmacyDutyEnd":"2024-08-04 08:00:00","latitude":37.041779,"longitude":35.25098}]}